City_ID,City,Lat,Lng,Max Temp,Humidity,Cloudiness,Wind Speed,Country,Date
0,provideniya,64.3833,-173.3,1.06,80,100,16.09,RU,1670283910
1,port alfred,-33.5906,26.891,13.99,95,3,0.89,ZA,1670283989
2,soloma,15.7167,-91.45,15.44,98,24,1.93,GT,1670283990
3,dingle,10.9995,122.6711,25.8,84,39,4.27,PH,1670283991
4,poum,-20.2333,164.0167,27.49,79,97,6.13,NC,1670283992
5,kroya,-7.6331,109.2461,25.07,87,100,0.74,ID,1670283992
6,albany,42.6001,-73.9662,5.23,55,100,0.89,US,1670283865
7,mar del plata,-38.0023,-57.5575,24.9,85,0,7.6,AR,1670283888
8,coracora,-15.0333,-73.7833,9.16,65,91,2.31,PE,1670283993
9,san remo,43.8182,7.7612,11.29,65,58,1.79,IT,1670283994
10,butaritari,3.0707,172.7902,27.04,81,98,6.58,KI,1670283874
11,anadyr,64.75,177.4833,-3.72,92,100,16.76,RU,1670283995
12,namibe,-15.1961,12.1522,20.42,83,45,2.86,AO,1670283995
13,labuhan,-6.8844,112.2051,26.97,80,100,1.91,ID,1670283996
14,iqaluit,63.7506,-68.5145,-13.15,78,100,2.06,CA,1670283996
15,gillette,44.2911,-105.5022,-0.49,64,0,4.12,US,1670283783
16,moose factory,51.2585,-80.6094,-15.0,78,40,3.09,CA,1670283997
17,yellowknife,62.456,-114.3525,-32.47,68,20,3.6,CA,1670283997
18,kahului,20.8947,-156.47,28.01,68,20,6.69,US,1670283583
19,ahuimanu,21.4447,-157.8378,28.52,66,100,4.63,US,1670283964
20,hilo,19.7297,-155.09,28.49,75,75,3.58,US,1670283748
21,lata,40.1629,-8.3327,12.26,92,99,1.38,PT,1670283998
22,conceicao do rio verde,-21.8808,-45.0853,18.72,96,100,1.42,BR,1670283999
23,hermanus,-34.4187,19.2345,11.56,68,100,0.82,ZA,1670283872
24,nalut,30.3333,10.85,16.6,26,49,3.47,LY,1670284000
25,gamba,-2.65,10.0,25.38,86,98,2.56,GA,1670284000
26,cervo,43.6702,-7.4101,12.45,72,78,0.99,ES,1670284001
27,zemio,5.0314,25.1361,21.11,83,61,0.48,CF,1670284001
28,magadan,59.5667,150.8,-22.59,86,33,2.94,RU,1670284001
29,punta arenas,-53.15,-70.9167,9.06,43,40,8.23,CL,1670283718
30,cape town,-33.9258,18.4232,19.65,65,0,5.14,ZA,1670283784
31,fortuna,40.5982,-124.1573,12.19,82,20,0.0,US,1670283912
32,clyde river,70.4692,-68.5914,-9.87,92,100,1.54,CA,1670284003
33,cairns,-16.9167,145.7667,30.06,52,2,1.03,AU,1670283977
34,vaini,-21.2,-175.2,28.09,83,75,4.63,TO,1670283948
35,barrow,71.2906,-156.7887,-1.99,69,75,10.29,US,1670283877
36,jamestown,42.097,-79.2353,7.77,30,0,3.6,US,1670283988
37,bathsheba,13.2167,-59.5167,24.34,91,20,2.06,BB,1670283936
38,caravelas,-17.7125,-39.2481,22.43,86,97,2.65,BR,1670284004
39,ribeira grande,38.5167,-28.7,17.1,80,100,7.6,PT,1670284004
40,kaitangata,-46.2817,169.8464,13.22,51,97,3.84,NZ,1670284005
41,sioux lookout,50.1001,-91.917,-20.96,77,40,1.54,CA,1670284005
42,saran,47.9501,1.876,3.29,93,100,3.09,FR,1670284006
43,leningradskiy,69.3833,178.4167,-27.35,93,17,1.61,RU,1670284006
44,kohlu,29.8962,69.252,8.77,34,0,0.68,PK,1670283877
45,richards bay,-28.783,32.0377,20.54,81,100,6.23,ZA,1670284007
46,san policarpo,12.1791,125.5072,27.19,80,99,3.93,PH,1670284007
47,touros,-5.1989,-35.4608,26.07,75,10,5.79,BR,1670284008
48,murgab,37.4966,61.9714,-2.29,46,0,2.91,TM,1670284008
49,hobart,-42.8794,147.3294,15.14,61,75,6.69,AU,1670283808
50,ushuaia,-54.8,-68.3,6.81,53,75,9.77,AR,1670284009
51,chara,56.9064,118.2631,-19.25,76,100,1.93,RU,1670283882
52,new norfolk,-42.7826,147.0587,14.95,55,97,1.34,AU,1670284009
53,sao filipe,14.8961,-24.4956,22.53,67,28,2.03,CV,1670284010
54,east london,-33.0153,27.9116,15.31,81,2,4.22,ZA,1670283901
55,hamilton,39.1834,-84.5333,8.43,66,100,4.63,US,1670283476
56,talnakh,69.4865,88.3972,-3.77,96,100,4.16,RU,1670283947
57,ati,13.2154,18.3353,23.73,16,0,6.33,TD,1670284011
58,palmas bellas,9.2319,-80.0867,26.3,85,87,2.37,PA,1670284011
59,atuona,-9.8,-139.0333,25.32,73,84,6.33,PF,1670284012
60,barbastro,42.0356,0.1269,9.1,66,100,0.47,ES,1670284013
61,gat,31.61,34.7642,15.22,80,14,0.55,IL,1670283869
62,sawtell,-30.3833,153.1,33.44,61,40,3.09,AU,1670284013
63,busselton,-33.65,115.3333,17.44,52,0,6.34,AU,1670283904
64,ponta delgada,37.7333,-25.6667,16.4,88,20,4.12,PT,1670283989
65,puerto ayora,-0.7393,-90.3518,21.42,91,67,2.24,EC,1670283826
66,tuktoyaktuk,69.4541,-133.0374,-26.0,64,75,11.83,CA,1670284014
67,katsuura,35.1333,140.3,7.01,93,100,8.93,JP,1670284015
68,ahipara,-35.1667,173.1667,20.04,69,99,3.57,NZ,1670284015
69,porbandar,21.6422,69.6093,20.6,38,0,5.53,IN,1670283780
70,oktyabrskoye,43.0645,44.7417,-3.92,100,92,5.0,RU,1670284016
71,chokurdakh,70.6333,147.9167,-39.02,100,35,2.56,RU,1670284016
72,talaya,61.3833,152.75,-41.39,99,58,0.3,RU,1670284017
73,bluff,-46.6,168.3333,10.45,54,72,2.82,NZ,1670284017
74,rikitea,-23.1203,-134.9692,24.24,80,96,6.55,PF,1670284018
75,hithadhoo,-0.6,73.0833,27.24,75,96,3.41,MV,1670284018
76,natitingou,10.3042,1.3796,24.36,26,18,2.36,BJ,1670284018
77,flin flon,54.7682,-101.865,-27.09,63,75,1.54,CA,1670283923
78,cherskiy,68.75,161.3,-24.59,90,100,2.31,RU,1670284019
79,hirara,24.8,125.2833,20.15,83,75,14.4,JP,1670284019
80,beira,-19.8436,34.8389,26.05,94,20,3.13,MZ,1670284020
81,bethel,41.3712,-73.414,6.47,63,0,0.0,US,1670283891
82,grants,35.1473,-107.8514,11.13,43,40,2.06,US,1670284020
83,batagay-alyta,67.8006,130.4114,-27.55,99,100,1.17,RU,1670284021
84,yar-sale,66.8333,70.8333,-17.79,98,21,2.76,RU,1670284023
85,kamenka,51.3223,42.7678,-9.33,51,9,2.1,RU,1670284025
86,quatre cocos,-20.2078,57.7625,23.38,81,73,6.88,MU,1670284026
87,salalah,17.0151,54.0924,22.05,60,0,3.09,OM,1670283896
88,gopalganj,26.4667,84.4333,13.68,54,0,3.28,IN,1670283846
89,bubaque,11.2833,-15.8333,27.24,70,62,3.88,GW,1670284033
90,ancud,-41.8697,-73.8203,12.87,96,71,3.24,CL,1670284033
91,togur,58.3631,82.8265,-17.94,97,100,2.64,RU,1670284035
92,buchanan,5.8808,-10.0467,25.51,87,100,1.12,LR,1670284035
93,san lawrenz,36.0553,14.204,14.36,90,12,3.12,MT,1670284036
94,riverton,40.5219,-111.9391,3.25,80,100,2.24,US,1670284037
95,veraval,20.9,70.3667,21.13,41,0,5.19,IN,1670284038
96,flinders,-34.5833,150.8552,20.59,66,63,4.08,AU,1670284038
97,puerto quijarro,-17.7833,-57.7667,24.62,89,100,0.39,BO,1670284041
98,neryungri,56.6709,124.6491,-17.19,90,100,3.93,RU,1670284041
99,coquimbo,-29.9533,-71.3436,16.85,77,20,4.63,CL,1670283797
100,chapais,49.7834,-74.8492,-8.12,97,98,1.29,CA,1670284044
101,arraial do cabo,-22.9661,-42.0278,23.07,89,100,8.81,BR,1670283914
102,avarua,-21.2078,-159.775,25.03,83,100,1.03,CK,1670284045
103,puerto del rosario,28.5004,-13.8627,17.86,82,0,3.09,ES,1670284046
104,puerto baquerizo moreno,-0.9,-89.6,20.87,79,65,4.81,EC,1670284049
105,iralaya,15.0,-83.2333,25.45,77,42,4.59,HN,1670284050
106,kodiak,57.79,-152.4072,3.73,93,0,0.0,US,1670284051
107,tabou,4.423,-7.3528,25.7,87,86,2.73,CI,1670284053
108,kemijarvi,66.7131,27.4306,-1.49,95,100,5.52,FI,1670284053
109,rocha,-34.4833,-54.3333,16.64,92,0,3.25,UY,1670283922
110,pedernales,18.0384,-71.744,24.74,76,7,1.5,DO,1670284056
111,vanimo,-2.6741,141.3028,26.82,85,100,0.52,PG,1670284056
112,karpathos,35.507,27.2132,15.98,72,80,6.17,GR,1670284056
113,taoudenni,22.6783,-3.9836,25.94,17,10,2.45,ML,1670284057
114,upernavik,72.7868,-56.1549,-2.99,75,27,5.29,GL,1670284057
115,bredasdorp,-34.5322,20.0403,13.76,72,99,1.26,ZA,1670284058
116,bambous virieux,-20.3428,57.7575,23.45,94,75,1.54,MU,1670283896
117,troitsko-pechorsk,62.7084,56.1964,-17.39,99,97,2.52,RU,1670284058
118,faya,18.3851,42.4509,11.06,77,2,1.69,SA,1670284059
119,castro,-24.7911,-50.0119,18.21,97,69,1.33,BR,1670284059
120,khatanga,71.9667,102.5,-26.61,93,49,4.23,RU,1670283953
121,marsh harbour,26.5412,-77.0636,23.67,72,31,3.79,BS,1670284060
122,egvekinot,66.3167,-179.1667,-11.19,87,100,9.14,RU,1670284060
123,narsaq,60.9167,-46.05,6.12,70,80,5.39,GL,1670284060
124,mataura,-46.1927,168.8643,10.27,50,93,2.15,NZ,1670283869
125,saskylakh,71.9167,114.0833,-24.31,90,100,10.01,RU,1670284061
126,lebedinyy,58.5167,125.5167,-23.06,97,100,3.42,RU,1670284061
127,murdochville,48.9583,-65.5006,-3.51,80,79,4.96,CA,1670284062
128,tongzi,28.7829,105.0877,9.77,69,100,0.75,CN,1670284062
129,ponta do sol,32.6667,-17.1,18.73,74,100,1.0,PT,1670284063
130,san martin,-33.081,-68.4681,30.3,33,60,3.16,AR,1670284063
131,zamora,-4.0692,-78.9567,25.58,92,83,1.66,EC,1670284054
132,yumen,40.2833,97.2,-9.71,89,100,1.54,CN,1670284064
133,georgetown,5.4112,100.3354,27.35,93,20,1.54,MY,1670283921
134,pangnirtung,66.1451,-65.7125,-6.0,93,100,5.14,CA,1670283930
135,verkhnevilyuysk,63.4453,120.3167,-22.93,97,100,2.43,RU,1670284064
136,kjellerup,56.2858,9.4353,1.8,100,75,1.54,DK,1670284065
137,kampong thum,12.7111,104.8887,22.62,94,43,2.12,KH,1670284066
138,xuddur,4.1213,43.8894,21.98,82,70,4.77,SO,1670283952
139,pochutla,15.7432,-96.4661,23.5,68,0,1.65,MX,1670284066
140,kruisfontein,-34.0033,24.7314,14.38,83,35,3.46,ZA,1670284067
141,jiblah,13.9216,44.1467,12.74,64,3,0.94,YE,1670284067
142,codrington,-38.2667,141.9667,15.08,63,18,4.49,AU,1670284067
143,coronel bogado,-27.1833,-56.3,31.27,56,7,2.46,PY,1670284068
144,cayenne,4.9333,-52.3333,25.02,94,0,0.51,GF,1670284059
145,gavrilovka vtoraya,52.877,42.7663,-8.97,55,17,1.65,RU,1670284069
146,lakes entrance,-37.8811,147.981,15.59,63,83,4.67,AU,1670284069
147,maba,24.6841,113.5984,7.7,82,97,1.51,CN,1670284069
148,nkhotakota,-12.9274,34.2961,25.54,65,97,2.02,MW,1670284070
149,vila velha,-20.3297,-40.2925,23.97,90,0,5.14,BR,1670284070
150,san juan,-31.5375,-68.5364,31.44,21,33,4.48,AR,1670284071
151,torbay,47.6666,-52.7314,4.04,96,100,0.0,CA,1670284071
152,broome,42.2506,-75.833,3.44,63,0,3.6,US,1670284072
153,muros,42.7762,-9.0603,11.49,91,100,1.24,ES,1670283345
154,qena,26.1615,32.7183,16.54,59,0,4.26,EG,1670284072
155,severo-kurilsk,50.6789,156.125,-3.85,73,96,9.04,RU,1670284073
156,amuntai,-2.4177,115.2494,25.84,86,90,0.22,ID,1670284073
157,uige,-7.6087,15.0613,18.38,98,100,1.05,AO,1670284074
158,santa isabel do rio negro,-0.4139,-65.0192,24.97,87,84,0.87,BR,1670284074
159,kapaa,22.0752,-159.319,23.99,90,57,0.89,US,1670284074
160,tura,25.5198,90.2201,15.08,85,0,1.69,IN,1670283687
161,camana,-16.6228,-72.7111,20.28,79,91,2.4,PE,1670284075
162,qaanaaq,77.484,-69.3632,1.31,74,100,7.83,GL,1670283905
163,strezhevoy,60.7333,77.5889,-12.96,96,99,3.6,RU,1670284075
164,norman wells,65.282,-126.8329,-27.98,76,20,6.17,CA,1670283938
165,dukat,62.55,155.55,-27.37,98,100,2.03,RU,1670284076
166,ust-kuyga,70.0167,135.6,-37.37,100,95,1.48,RU,1670284076
167,thompson,55.7435,-97.8558,-28.91,69,20,4.12,CA,1670283923
168,cornelio procopio,-23.1811,-50.6467,20.13,93,84,0.51,BR,1670284077
169,muravlenko,63.7898,74.523,-15.89,97,97,4.84,RU,1670284078
170,lompoc,34.6391,-120.4579,17.23,68,0,5.66,US,1670284078
171,gouyave,12.1646,-61.7296,25.43,78,20,1.54,GD,1670284079
172,chuy,-33.6971,-53.4616,18.33,93,0,3.22,UY,1670284079
173,umm kaddadah,13.6017,26.6876,17.37,27,22,5.82,SD,1670284080
174,brae,60.3964,-1.353,5.74,67,100,10.56,GB,1670284080
175,turukhansk,65.8167,87.9833,-3.89,96,100,7.07,RU,1670284081
176,slave lake,55.2834,-114.769,-21.01,65,40,5.14,CA,1670284081
177,deogarh,21.5333,84.7333,14.04,57,0,1.33,IN,1670284082
178,novomyrhorod,48.7811,31.642,-5.53,66,76,3.88,UA,1670284082
179,bonthe,7.5264,-12.505,25.9,84,56,1.84,SL,1670284083
180,ewa beach,21.3156,-158.0072,28.65,63,0,4.63,US,1670284084
181,kigoma,-4.8769,29.6267,21.32,85,100,3.88,TZ,1670284085
182,bengkulu,-3.8004,102.2655,24.17,89,100,1.15,ID,1670284097
183,ilulissat,69.2167,-51.1,6.01,52,100,6.17,GL,1670283886
184,sorland,67.667,12.6934,1.92,81,100,16.97,NO,1670284099
185,zhangjiakou,40.81,114.8794,-9.42,40,0,2.58,CN,1670284104
186,andenes,69.3143,16.1194,2.99,75,75,12.35,NO,1670284105
187,sinnamary,5.3833,-52.95,25.1,90,70,3.92,GF,1670284108
188,iskateley,67.6803,53.1512,-14.1,92,74,6.09,RU,1670283986
189,punta de bombon,-17.1717,-71.7931,20.12,77,86,1.61,PE,1670284113
190,mayumba,-3.432,10.6554,25.21,88,100,1.38,GA,1670284116
191,kieta,-6.2167,155.6333,27.69,80,89,5.42,PG,1670284117
192,the valley,18.217,-63.0578,26.17,73,20,3.6,AI,1670284117
193,cabo san lucas,22.8909,-109.9124,28.62,64,47,0.45,MX,1670283952
194,boyolangu,-8.1181,111.8935,25.84,82,98,0.35,ID,1670284118
195,lagodekhi,41.8268,46.2767,-0.5,82,89,1.22,GE,1670284118
196,grand gaube,-20.0064,57.6608,23.54,79,52,1.79,MU,1670284119
197,pevek,69.7008,170.3133,-27.2,81,33,0.51,RU,1670284119
198,colac,-38.3333,143.5833,16.21,56,78,1.53,AU,1670284120
199,mao,39.8885,4.2658,13.31,94,0,3.09,ES,1670284120
200,naro moru,-0.1676,37.0213,10.91,93,99,0.77,KE,1670284121
201,pacific grove,36.6177,-121.9166,15.23,80,75,3.58,US,1670283840
202,mariveles,14.4833,120.4833,21.98,79,82,4.21,PH,1670284122
203,port elizabeth,-33.918,25.5701,16.16,87,0,4.12,ZA,1670284122
204,contamana,-7.3333,-75.0167,27.34,62,70,1.28,PE,1670283900
205,sorong,-0.8833,131.25,27.69,78,91,3.36,ID,1670284123
206,yaan,7.3833,8.5667,24.84,19,71,1.35,NG,1670284123
207,ueno,34.75,136.1333,8.99,71,54,4.48,JP,1670284124
208,alofi,-19.0595,-169.9187,25.94,83,75,3.6,NU,1670284124
209,toamasina,-18.1667,49.3833,22.0,94,40,1.54,MG,1670284124
210,marawi,7.9986,124.2928,23.33,79,77,1.0,PH,1670284125
211,rawson,-43.3002,-65.1023,22.67,40,88,7.04,AR,1670284006
212,clarksburg,39.2807,-80.3445,8.06,50,0,0.0,US,1670283947
213,nome,64.5011,-165.4064,-0.96,80,0,9.26,US,1670284126
214,hammerfest,70.6634,23.6821,3.25,87,75,4.63,NO,1670284126
215,shar,49.5886,81.0453,-24.24,100,92,0.68,KZ,1670284127
216,nikolskoye,59.7035,30.7861,-6.06,90,100,3.64,RU,1670284127
217,gimli,50.6336,-96.9907,-21.99,59,50,2.06,CA,1670284128
218,zhuhai,22.2769,113.5678,13.88,82,40,9.26,CN,1670284129
219,xichang,27.8964,102.2634,4.15,83,0,0.63,CN,1670284129
220,kavaratti,10.5669,72.642,27.22,71,65,0.88,IN,1670284130
221,arona,28.0996,-16.681,18.55,78,20,2.06,ES,1670284130
222,whitehorse,60.7161,-135.0538,-14.57,85,75,1.03,CA,1670283938
223,kavieng,-2.5744,150.7967,28.32,73,85,1.64,PG,1670283918
224,dong hoi,17.4833,106.6,17.89,89,100,5.34,VN,1670284131
225,mahebourg,-20.4081,57.7,23.47,94,75,1.54,MU,1670284055
226,dunedin,-45.8742,170.5036,9.89,85,96,3.58,NZ,1670283938
227,nemuro,43.3236,145.575,-1.46,53,0,4.83,JP,1670284131
228,comodoro rivadavia,-45.8667,-67.5,21.92,28,40,12.35,AR,1670284132
229,kirakira,-10.4544,161.9205,29.37,71,100,3.02,SB,1670283998
230,vila franca do campo,37.7167,-25.4333,16.23,84,58,4.16,PT,1670284132
231,kaura namoda,12.5898,6.5779,21.69,16,71,4.31,NG,1670284132
232,road town,18.4167,-64.6167,27.05,78,20,5.66,VG,1670284133
233,salinopolis,-0.6136,-47.3561,26.87,78,100,4.85,BR,1670283978
234,hasaki,35.7333,140.8333,6.23,85,100,10.54,JP,1670284133
235,saldanha,-33.0117,17.9442,14.03,77,80,6.2,ZA,1670284134
236,carnarvon,-24.8667,113.6333,21.98,67,69,6.98,AU,1670283959
237,esperance,-33.8667,121.9,17.46,73,100,3.39,AU,1670284134
238,abnub,27.2696,31.1511,14.12,66,0,5.01,EG,1670284135
239,imeni stepana razina,54.8932,44.2963,-13.11,92,68,1.82,RU,1670284135
240,solano,38.2333,-121.9511,15.6,71,40,5.14,US,1670284136
241,chulman,56.8479,124.9104,-17.8,95,100,2.83,RU,1670284136
242,alice springs,-23.7,133.8833,34.75,11,3,7.2,AU,1670284137
243,lobito,-12.3481,13.5456,25.31,81,100,3.33,AO,1670284137
244,dudinka,69.4058,86.1778,-3.54,95,100,7.13,RU,1670284137
245,adrar,20.5022,-10.0711,23.15,29,8,0.4,MR,1670284138
246,harrogate,53.9908,-1.5373,3.97,88,40,3.09,GB,1670283908
247,tutoia,-2.7619,-42.2744,26.54,83,44,7.1,BR,1670284138
248,winneba,5.3511,-0.6231,25.93,89,25,2.36,GH,1670284139
249,baculin,7.4525,126.5842,27.73,76,96,2.59,PH,1670284139
250,kamaishi,39.2667,141.8833,4.7,82,95,1.06,JP,1670284140
251,hervey bay,-25.2986,152.8535,25.39,64,0,3.46,AU,1670284043
252,acapulco,16.8634,-99.8901,26.2,79,0,3.0,MX,1670284140
253,lebu,-37.6167,-73.65,15.37,84,3,1.12,CL,1670284140
254,lalmohan,22.3384,90.7419,18.89,72,8,3.76,BD,1670284141
255,padang,-0.9492,100.3543,24.7,87,100,1.41,ID,1670284141
256,vostok,46.4856,135.8833,-17.6,92,52,2.21,RU,1670284142
257,jos,9.9167,8.9,15.98,23,46,2.34,NG,1670284144
258,innisfail,-17.5333,146.0333,28.88,48,0,2.14,AU,1670284145
259,aras,42.5617,-2.356,4.85,93,100,1.54,ES,1670284145
260,tasiilaq,65.6145,-37.6368,-2.91,62,22,2.17,GL,1670284146
261,ginir,7.1333,40.7,12.94,38,24,2.33,ET,1670284146
262,bratsk,56.1325,101.6142,-12.73,84,100,8.14,RU,1670283968
263,kaa-khem,51.6833,94.7333,-29.64,94,78,0.84,RU,1670284147
264,shingu,33.7333,135.9833,9.39,78,26,2.84,JP,1670284148
265,ust-nera,64.5667,143.2,-42.18,97,98,1.07,RU,1670284149
266,lardos,36.0942,28.0157,15.53,77,0,4.48,GR,1670284150
267,haapiti,-17.5667,-149.8667,29.85,78,15,6.61,PF,1670284152
268,kupang,-10.1667,123.5833,28.32,83,20,1.54,ID,1670284153
269,katobu,-4.9408,122.5276,26.9,83,81,1.57,ID,1670284155
270,tuatapere,-46.1333,167.6833,11.52,65,84,2.81,NZ,1670283960
271,saint george,37.1041,-113.5841,14.97,56,0,2.06,US,1670284156
272,lorengau,-2.0226,147.2712,27.37,80,98,2.02,PG,1670284157
273,cockburn town,21.4612,-71.1419,26.06,61,43,8.8,TC,1670284012
274,banjar,-8.19,114.9675,28.15,72,100,0.24,ID,1670284159
275,mareeba,-17.0,145.4333,28.58,56,2,0.95,AU,1670284162
276,chipoka,-13.9933,34.5157,25.63,65,100,0.55,MW,1670284164
277,royan,45.6285,-1.0281,2.13,82,26,5.03,FR,1670284166
278,asfi,32.2994,-9.2372,17.7,84,39,6.74,MA,1670284166
279,colares,38.7992,-9.4469,14.31,90,41,2.24,PT,1670284167
280,dikson,73.5069,80.5464,-5.07,96,100,5.75,RU,1670284168
281,tabas,33.5959,56.9244,6.12,49,33,1.03,IR,1670283896
282,vila,42.0304,-8.1588,4.49,91,100,1.37,PT,1670284169
283,deputatskiy,69.3,139.9,-33.3,96,100,1.01,RU,1670283979
284,saint-pierre,-21.3393,55.4781,22.82,64,0,3.6,RE,1670284171
285,kamina,-8.7386,24.9906,15.45,96,97,1.01,CD,1670284171
286,tomatlan,19.9333,-105.25,25.63,76,8,1.79,MX,1670284172
287,coari,-4.085,-63.1414,24.59,88,74,0.79,BR,1670284172
288,palkonda,18.6,83.75,17.53,75,40,1.75,IN,1670284173
289,boende,-0.2167,20.8667,20.35,99,75,1.21,CD,1670284173
290,portland,45.5234,-122.6762,8.18,77,20,2.06,US,1670283502
291,avera,33.194,-82.5271,11.32,98,100,4.4,US,1670284046
292,vista hermosa,19.5167,-99.2167,22.44,33,0,2.36,MX,1670284174
293,havelock,34.8791,-76.9013,13.99,86,75,2.06,US,1670284174
294,husavik,66.0449,-17.3389,-0.41,82,96,5.5,IS,1670284174
295,teguldet,57.3064,88.1667,-18.28,92,100,3.11,RU,1670284175
296,octeville,49.6261,-1.6435,7.27,87,100,2.57,FR,1670284175
297,oriximina,-1.7656,-55.8661,25.08,82,84,1.2,BR,1670284175
298,honiara,-9.4333,159.95,30.05,66,71,2.06,SB,1670284176
299,sao jose da coroa grande,-8.8978,-35.1478,24.67,86,18,5.27,BR,1670284176
300,oistins,13.0667,-59.5333,24.05,88,20,2.06,BB,1670283932
301,port hardy,50.6996,-127.4199,2.1,93,75,1.54,CA,1670284177
302,chahal,15.75,-89.5667,20.82,95,34,1.18,GT,1670284177
303,bismil,37.8486,40.6658,4.06,70,22,0.36,TR,1670284178
304,biak,-0.9131,122.8766,26.12,79,100,3.34,ID,1670284178
305,mankachar,25.5333,89.8667,17.03,84,0,2.67,IN,1670284179
306,sitka,57.0531,-135.33,2.94,81,100,0.0,US,1670284179
307,victoria,22.2855,114.1577,16.81,77,83,4.92,HK,1670283909
308,samarai,-10.6167,150.6667,28.06,73,83,3.05,PG,1670284180
309,jawhar,2.7809,45.5005,23.42,91,25,1.84,SO,1670284180
310,lagoa,39.05,-27.9833,16.06,76,100,11.52,PT,1670284181
311,pontianak,-0.0333,109.3333,23.99,94,40,2.06,ID,1670284181
312,jumla,29.2747,82.1838,3.5,17,0,2.28,NP,1670284181
313,predivinsk,57.0669,93.4378,-15.99,93,100,3.72,RU,1670284182
314,manchester,53.4809,-2.2374,5.55,84,100,4.63,GB,1670284009
315,dzaoudzi,-12.7887,45.2699,26.94,78,100,3.6,YT,1670284182
316,malibu,34.005,-118.8101,18.28,80,71,1.79,US,1670284183
317,offenburg,48.4833,7.9333,5.46,84,100,2.06,DE,1670284183
318,paita,-5.0892,-81.1144,19.45,85,3,7.42,PE,1670284183
319,tual,-5.6667,132.75,28.17,71,96,4.16,ID,1670284184
320,airai,-8.9266,125.4092,21.81,49,90,0.69,TL,1670284184
321,pisco,-13.7,-76.2167,21.03,73,0,6.17,PE,1670284184
322,aswan,24.0934,32.907,15.61,58,0,2.06,EG,1670284185
323,harboore,56.6175,8.1807,0.08,93,96,2.22,DK,1670284185
324,chifeng,42.2683,118.9636,-9.85,34,0,5.17,CN,1670284186
325,yeppoon,-23.1333,150.7333,28.88,52,0,0.67,AU,1670284186
326,geraldton,-28.7667,114.6,22.23,60,57,7.72,AU,1670284186
327,hemnesberget,66.2333,13.6333,2.4,93,100,5.53,NO,1670284187
328,ternate,0.8,127.4,27.92,72,71,0.91,ID,1670284187
329,san patricio,28.017,-97.5169,25.86,79,67,5.91,US,1670284187
330,fredericton,45.9454,-66.6656,1.58,79,0,4.63,CA,1670284188
331,dwarka,22.2394,68.9678,22.55,44,0,5.68,IN,1670284007
332,saint-francois,46.4154,3.9054,-1.85,100,100,0.51,FR,1670284188
333,kichmengskiy gorodok,59.9816,45.7854,-11.06,85,99,2.65,RU,1670284189
334,tiksi,71.6872,128.8694,-25.22,95,100,6.01,RU,1670284189
335,saint-philippe,-21.3585,55.7679,22.77,83,90,4.9,RE,1670283991
336,mandalgovi,45.7625,106.2708,-15.11,37,0,2.9,MN,1670284190
337,muroto,33.2833,134.15,11.32,63,4,3.71,JP,1670284190
338,puerto cabezas,14.0351,-83.3888,26.98,78,40,3.09,NI,1670284191
339,gold coast,-28.0,153.4333,30.5,57,1,5.66,AU,1670283896
340,xai-xai,-25.0519,33.6442,23.98,89,99,6.4,MZ,1670284191
341,murray bridge,-35.1167,139.2667,17.97,38,97,2.75,AU,1670284192
342,vardo,70.3705,31.1107,-4.01,93,100,5.66,NO,1670284192
343,yarmouth,41.7057,-70.2286,8.08,77,75,2.06,US,1670284053
344,atchison,39.563,-95.1216,7.86,71,98,4.98,US,1670284193
345,ostrovnoy,68.0531,39.5131,-3.56,85,60,11.13,RU,1670284193
346,vao,-22.6667,167.4833,25.48,88,97,5.29,NC,1670284194
347,kawalu,-7.3817,108.2082,23.72,89,100,0.32,ID,1670284194
348,shaunavon,49.6501,-108.4181,-12.12,95,100,3.06,CA,1670284194
349,atar,20.5169,-13.0499,23.82,20,14,1.69,MR,1670284195
350,arkhangelsk,64.5401,40.5433,-5.94,100,100,3.0,RU,1670284196
351,xining,36.6167,101.7667,-4.99,53,87,0.81,CN,1670284197
352,inhambane,-23.865,35.3833,25.14,89,96,2.76,MZ,1670284197
353,henties bay,-22.116,14.2845,13.98,90,0,3.69,NA,1670284198
354,khandyga,62.6667,135.6,-29.95,100,100,1.0,RU,1670283957
355,sokolo,14.7328,-6.1219,29.08,22,100,4.05,ML,1670284198
356,rincon,32.296,-81.2354,17.98,86,100,2.06,US,1670283977
357,bath,51.3779,-2.3591,6.99,92,100,4.88,GB,1670284082
358,fairbanks,64.8378,-147.7164,-9.02,89,100,0.0,US,1670284199
359,kalmunai,7.4167,81.8167,23.98,88,99,2.63,LK,1670284200
360,tilichiki,60.4667,166.1,-16.15,88,85,3.95,RU,1670284200
361,oussouye,12.485,-16.5469,25.05,63,34,2.88,SN,1670284201
362,souillac,-20.5167,57.5167,23.21,94,75,1.54,MU,1670284201
363,makakilo city,21.3469,-158.0858,27.86,62,0,4.63,US,1670284202
364,itacarambi,-15.1022,-44.0919,20.89,93,91,1.26,BR,1670284205
365,chumikan,54.7183,135.315,-17.4,77,100,10.14,RU,1670284205
366,hit,33.6416,42.8251,13.41,55,0,1.46,IQ,1670284207
367,charters towers,-20.1,146.2667,30.64,32,0,2.44,AU,1670284208
368,cidreira,-30.1811,-50.2056,22.12,90,99,3.85,BR,1670283939
369,bratskoye,43.6536,44.8889,-1.7,86,100,3.55,RU,1670284210
370,riyadh,24.6877,46.7219,20.08,41,44,4.28,SA,1670284194
371,frederikshavn,57.4407,10.5366,2.52,84,100,4.58,DK,1670284212
372,viedma,-40.8135,-62.9967,24.37,52,73,5.82,AR,1670283635
373,grindavik,63.8424,-22.4338,-0.74,100,11,2.06,IS,1670284215
374,tandil,-37.3217,-59.1332,27.6,34,2,5.92,AR,1670284216
375,arlit,18.7369,7.3853,24.76,17,98,2.33,NE,1670284217
376,petropavlovsk-kamchatskiy,53.0452,158.6483,-10.67,62,75,3.0,RU,1670284219
377,longyearbyen,78.2186,15.6401,-14.09,66,40,9.26,SJ,1670284050
378,isangel,-19.55,169.2667,31.06,74,40,1.54,VU,1670283933
379,urusha,54.05,122.9,-26.29,100,99,0.7,RU,1670284225
380,kloulklubed,7.0419,134.2556,28.05,78,89,5.0,PW,1670284231
381,mahajanga,-15.7167,46.3167,25.01,94,20,1.54,MG,1670284232
382,shymkent,42.3,69.6,-8.67,93,75,0.0,KZ,1670284233
383,dakar,14.6937,-17.4441,25.07,78,0,2.06,SN,1670283954
384,tombouctou,20.0,-3.0,25.57,16,84,1.63,ML,1670284234
385,callaguip,18.0714,120.4867,26.01,78,20,5.66,PH,1670284235
386,gharghoda,22.1667,83.35,13.49,46,1,1.19,IN,1670284235
387,bodden town,19.2833,-81.25,27.0,67,20,6.17,KY,1670284236
388,maputo,-25.9653,32.5892,23.82,83,75,5.81,MZ,1670284236
389,kimovsk,53.9716,38.5319,-9.32,77,89,3.56,RU,1670284237
390,vanavara,60.34,102.2797,-12.2,90,100,5.1,RU,1670284237
391,north adams,42.7009,-73.1087,3.83,46,0,2.68,US,1670284238
392,machiques,10.0644,-72.545,22.87,87,69,2.26,VE,1670284238
393,marienburg,54.0359,19.0266,3.25,89,100,1.93,PL,1670284187
394,mackay,-21.15,149.2,33.16,61,0,2.91,AU,1670284239
395,soddy-daisy,35.2359,-85.1908,9.71,95,100,1.99,US,1670284239
396,tymovskoye,50.8456,142.655,-11.12,82,73,3.63,RU,1670284239
397,acarau,-2.8856,-40.12,26.51,78,20,7.61,BR,1670284240
398,letpadan,17.7833,95.75,21.94,74,86,2.28,MM,1670284240
399,merauke,-8.4667,140.3333,27.95,73,95,4.18,ID,1670284241
400,grafton,42.207,-71.6856,5.43,76,0,2.57,US,1670284241
401,buraydah,26.326,43.975,15.25,74,99,4.86,SA,1670284083
402,mamallapuram,12.6264,80.1722,26.03,80,64,3.98,IN,1670283986
403,nanakuli,21.3906,-158.1547,28.65,56,0,4.63,US,1670284242
404,nioro,13.35,-15.75,23.89,54,47,2.58,GM,1670284242
405,angoche,-16.2325,39.9086,24.74,84,0,4.28,MZ,1670284243
406,maniitsoq,65.4167,-52.9,2.09,88,100,11.61,GL,1670284244
407,pafos,34.7667,32.4167,12.88,71,20,3.6,CY,1670284244
408,sola,-13.8833,167.55,31.37,66,89,0.0,VU,1670284245
409,port hedland,-20.3167,118.5667,32.03,48,89,5.66,AU,1670284048
410,laramie,41.3114,-105.5911,-0.26,63,75,8.75,US,1670284246
411,kismayo,-0.3582,42.5454,26.07,79,14,4.71,SO,1670284111
412,tarakan,3.3,117.6333,26.14,81,91,1.04,ID,1670284246
413,byron bay,-28.65,153.6167,31.51,46,0,1.96,AU,1670284246
414,pangoa,-12.1167,-73.0,20.34,94,78,1.69,PE,1670284247
415,poya,-21.35,165.15,25.39,87,100,1.32,NC,1670284247
416,marzuq,14.4,46.4667,14.69,56,3,1.6,YE,1670284248
417,jishou,28.3167,109.7167,3.17,88,6,0.33,CN,1670284055
418,ocala,29.1872,-82.1401,21.12,73,75,0.0,US,1670283994
419,shache,38.4167,77.2406,-6.47,42,8,0.37,CN,1670284248
420,kokopo,-4.352,152.2633,28.62,67,79,1.39,PG,1670284249
421,broken hill,-31.95,141.4333,21.72,30,72,3.34,AU,1670284249
422,kenai,60.5544,-151.2583,-2.7,95,100,3.6,US,1670284249
423,antalaha,-14.9003,50.2788,22.44,82,35,3.4,MG,1670284250
424,nyrob,60.733,56.7202,-16.45,98,98,1.62,RU,1670284251
425,kuminskiy,58.6667,66.5667,-20.42,99,98,1.39,RU,1670284251
426,suruc,36.9761,38.425,10.08,70,15,1.02,TR,1670284251
427,launceston,-41.45,147.1667,15.34,54,75,10.29,AU,1670284208
428,haapsalu,58.9431,23.5414,-2.23,89,100,4.55,EE,1670284252
429,kaltasy,55.9693,54.8032,-22.15,100,81,0.77,RU,1670284252
430,dandong,40.1292,124.3947,-7.83,74,6,1.09,CN,1670284253
431,magistralnyy,56.1725,107.4458,-11.97,83,100,4.39,RU,1670284253
432,narasannapeta,18.4167,84.05,18.75,80,34,2.26,IN,1670284254
433,coihaique,-45.5752,-72.0662,12.97,50,40,4.12,CL,1670283746
434,teguise,29.0605,-13.564,15.12,88,20,2.57,ES,1670284254
435,bahia blanca,-38.7196,-62.2724,26.83,55,20,9.26,AR,1670284065
436,wabag,-5.4781,143.7021,15.76,93,100,1.19,PG,1670284255
437,nishihara,26.1842,127.7558,18.6,91,100,8.23,JP,1670284255
438,benalla,-36.55,145.9833,19.92,46,2,0.64,AU,1670284256
439,sao joao da barra,-21.6403,-41.0511,25.05,85,92,9.45,BR,1670284109
440,toyohashi,34.7667,137.3833,10.53,61,34,5.92,JP,1670284256
441,vyshestebliyevskaya,45.1961,37.0181,-1.77,79,22,11.44,RU,1670284257
442,brigantine,39.4101,-74.3646,5.57,75,0,0.0,US,1670283994
443,dongying,37.4564,118.4856,-1.04,35,0,1.98,CN,1670284257
444,kottagudem,17.55,80.6333,17.95,87,82,0.74,IN,1670284258
445,meybod,32.2501,54.0166,4.01,57,14,4.32,IR,1670284258
446,jalu,29.0331,21.5482,16.85,37,4,3.74,LY,1670283897
447,moyale,3.5167,39.0584,19.27,60,99,1.32,KE,1670284258
448,upington,-28.4478,21.2561,18.21,27,0,2.57,ZA,1670284259
449,fort nelson,58.8053,-122.7002,-22.23,73,20,2.06,CA,1670284259
450,miri,4.4148,114.0089,26.76,94,20,1.03,MY,1670284260
451,muhos,64.808,25.9931,-1.73,95,100,5.43,FI,1670284260
452,develi,38.3906,35.4922,-3.36,84,9,0.28,TR,1670284260
453,itarema,-2.9248,-39.9167,26.4,78,35,7.3,BR,1670284091
454,havre,49.5833,0.3333,1.87,93,87,2.06,FR,1670284261
455,maldonado,-34.6667,-54.9167,24.66,68,0,3.81,UY,1670284262
456,nenjiang,49.1833,125.2167,-15.2,88,84,3.31,CN,1670284262
457,bac lieu,9.285,105.7244,26.09,87,98,5.78,VN,1670284204
458,trelew,-43.249,-65.3051,26.5,22,82,10.31,AR,1670284002
459,molteno,-31.3968,26.3625,7.75,85,28,2.63,ZA,1670284263
460,dhidhdhoo,6.8833,73.1,27.09,77,99,5.71,MV,1670284263
461,chone,-0.6833,-80.1,24.59,72,37,3.96,EC,1670284263
462,scandiano,44.5965,10.6907,11.17,91,72,1.34,IT,1670284264
463,belmonte,-15.8631,-38.8828,23.21,86,100,2.67,BR,1670284070
464,billings,45.7833,-108.5007,-2.13,80,40,6.17,US,1670284170
465,olafsvik,64.8945,-23.7142,4.08,73,23,0.88,IS,1670284265
466,san quintin,30.4833,-115.95,16.8,69,0,8.92,MX,1670284265
467,orotukan,62.2667,151.7,-39.86,99,32,2.37,RU,1670284266
468,cruzeiro do oeste,-23.785,-53.0733,21.82,92,65,1.37,BR,1670284266
469,bilma,18.6853,12.9164,22.33,20,18,1.99,NE,1670284267
470,sinjar,36.3209,41.8754,10.96,68,78,0.72,IQ,1670284267
471,port lincoln,-34.7333,135.8667,16.9,65,100,5.01,AU,1670284267
472,tottori,35.5,134.2333,8.04,57,75,4.12,JP,1670284209
473,cabadiangan,9.7531,122.4739,26.93,82,52,3.13,PH,1670284268
474,wagar,16.1525,36.2032,22.95,71,0,5.88,SD,1670284120
475,moron,-34.6534,-58.6198,28.92,72,0,4.28,AR,1670284269
476,mwinilunga,-11.7358,24.4293,16.15,92,100,1.56,ZM,1670284269
477,dezhou,37.4486,116.2925,-1.83,44,0,1.45,CN,1670284269
478,nakamura,32.9833,132.9333,9.1,73,2,3.42,JP,1670284270
479,pemangkat,1.1667,108.9667,25.55,86,66,1.84,ID,1670284270
480,kazachinskoye,57.6953,93.2761,-15.71,92,100,4.29,RU,1670284271
481,upata,8.0086,-62.3989,24.55,97,48,1.66,VE,1670284271
482,donja dubica,45.075,18.4114,7.0,89,56,1.75,BA,1670284271
483,naze,28.3667,129.4833,15.51,66,97,7.6,JP,1670283878
484,pangai,-19.8,-174.35,29.06,65,40,2.06,TO,1670284272
485,sao sebastiao,-23.76,-45.4097,23.02,95,100,3.41,BR,1670284272
486,salinas,36.6777,-121.6555,15.46,70,100,3.09,US,1670284273
487,kondinskoye,59.6481,67.41,-19.7,99,99,2.0,RU,1670284273
488,riachao das neves,-11.7461,-44.91,20.18,96,72,1.01,BR,1670284274
489,emba,48.8264,58.1442,-11.64,96,98,2.25,KZ,1670284274
490,paamiut,61.994,-49.6678,3.33,77,100,15.65,GL,1670284082
491,vancouver,49.2497,-123.1193,3.19,87,75,1.54,CA,1670284020
492,shibetsu,43.659,145.132,-4.61,74,20,1.54,JP,1670284275
493,ramanagaram,12.7167,77.3,18.31,96,47,2.77,IN,1670284275
494,kununurra,-15.7667,128.7333,30.99,74,40,3.09,AU,1670284276
495,saint-augustin,51.226,-58.6502,-6.19,87,7,0.78,CA,1670284276
496,kaabong,3.4836,34.1492,18.89,60,47,3.48,UG,1670284277
497,leh,34.1667,77.5833,-8.71,52,66,0.84,IN,1670284277
498,mnogovershinnyy,53.9353,139.9242,-19.73,94,83,2.87,RU,1670284277
499,bozdar,27.1828,68.636,17.64,30,0,1.84,PK,1670284278
500,scarborough,54.2797,-0.4044,5.51,85,96,0.89,GB,1670284173
501,nuuk,64.1835,-51.7216,3.35,72,100,12.89,GL,1670284278
502,kaitong,44.8135,123.15,-11.69,50,0,6.41,CN,1670284279
503,arrecife,28.963,-13.5477,16.99,88,20,2.57,ES,1670284279
504,sao felix do xingu,-6.6447,-51.995,21.96,97,87,0.41,BR,1670284280
505,west monroe,32.5185,-92.1476,23.0,81,75,2.57,US,1670284224
506,puri,19.8,85.85,17.29,55,1,3.6,IN,1670283984
507,carlsbad,33.1581,-117.3506,17.16,71,40,4.92,US,1670284077
508,oranjemund,-28.55,16.4333,15.79,84,89,6.81,NA,1670284281
509,xingcheng,40.6167,120.7167,-4.59,32,8,3.99,CN,1670284281
510,gizo,-8.103,156.8419,29.0,70,100,4.26,SB,1670284282
511,maxixe,-23.8597,35.3472,24.77,90,96,1.96,MZ,1670284282
512,buala,-8.145,159.5921,28.85,74,99,3.02,SB,1670284022
513,teya,60.3778,92.6267,-17.71,97,100,2.47,RU,1670284283
514,ratnagiri,16.9833,73.3,24.93,61,40,2.6,IN,1670284283
515,birao,10.2849,22.7882,20.87,27,100,3.41,CF,1670284284
516,udachnyy,66.4167,112.4,-26.42,75,100,2.69,RU,1670283961
517,skowhegan,44.7651,-69.7192,4.76,86,61,2.08,US,1670284044
518,namatanai,-3.6667,152.4333,28.55,73,87,2.68,PG,1670284284
519,nhulunbuy,-12.2333,136.7667,32.34,51,40,6.17,AU,1670284285
520,tonj,7.2737,28.6822,25.58,39,27,2.21,SS,1670284285
521,hovd,48.0056,91.6419,-16.84,79,5,1.93,MN,1670284286
522,orange,33.7,-117.7675,17.49,63,83,2.24,US,1670284094
523,shu,43.5983,73.7614,-5.95,95,91,1.11,KZ,1670284286
524,port augusta,-32.5,137.7667,24.5,31,100,1.09,AU,1670284058
525,three hills,51.7001,-113.2686,-14.34,85,100,5.66,CA,1670284287
526,vestmannaeyjar,63.4427,-20.2734,4.0,68,33,2.19,IS,1670284038
527,thinadhoo,0.5333,72.9333,27.24,75,98,3.19,MV,1670284173
528,villarrica,-25.75,-56.4333,25.09,65,62,1.82,PY,1670284288
529,mackenzie,55.2999,-123.1698,-10.88,79,100,0.0,CA,1670283918
530,faanui,-16.4833,-151.75,26.55,76,84,7.41,PF,1670284098
531,synya,65.3718,58.0387,-14.05,93,94,4.84,RU,1670284289
532,palmer,42.1584,-72.3287,4.72,76,75,2.06,US,1670284289
533,cozumel,20.5083,-86.9458,27.04,77,75,6.26,MX,1670284231
534,miandrivazo,-19.5167,45.4667,24.96,77,33,0.5,MG,1670284072
535,mitchell,43.7094,-98.0298,-3.01,74,100,5.66,US,1670284290
536,pinehurst,35.1954,-79.4695,9.61,66,100,0.0,US,1670284290
537,gribanovskiy,51.4579,41.9764,-9.13,55,5,1.94,RU,1670284291
538,sinegorye,62.0788,150.477,-37.55,89,12,1.64,RU,1670284291
539,lavrentiya,65.5833,-171.0,-1.31,88,100,14.24,RU,1670284162
540,mansfield,53.1333,-1.2,5.11,94,92,0.45,GB,1670284137
541,ajdabiya,30.7554,20.2263,17.09,42,66,4.54,LY,1670284292
542,samandag,36.0842,35.9771,14.57,68,36,2.17,TR,1670284292
543,nelson bay,-32.7167,152.15,22.22,75,78,4.92,AU,1670284293
544,khasan,42.4308,130.6434,-4.73,44,0,5.09,RU,1670284210
545,astara,38.5,48.6667,-0.61,97,100,0.63,AZ,1670284293
546,ulety,51.3572,112.4849,-10.36,72,100,10.08,RU,1670284294
547,bud,39.447,-86.1758,7.04,66,100,3.04,US,1670283893
548,coahuayana,18.7333,-103.6833,26.42,77,1,1.63,MX,1670284294
549,simbahan,6.3032,120.5836,27.46,77,86,2.9,PH,1670284294
550,sinor,21.9167,73.3333,21.0,64,4,2.06,IN,1670284295
551,malmo,55.6059,13.0007,2.93,95,100,4.04,SE,1670284295
552,staroye drozhzhanoye,54.7266,47.5677,-18.12,93,42,1.64,RU,1670284296
553,batsfjord,70.6345,29.7185,0.96,93,75,9.77,NO,1670284296
554,chermoz,58.787,56.1489,-14.93,97,86,2.31,RU,1670284297
555,dongsheng,39.8161,109.9776,-10.13,48,2,2.29,CN,1670284297
556,regina,50.4501,-104.6178,-19.42,73,75,2.57,CA,1670284150
557,campbell river,50.0163,-125.2446,2.37,100,100,0.0,CA,1670284231
558,ulaangom,49.9811,92.0667,-27.4,90,27,1.13,MN,1670284298
559,frederick,39.4668,-77.3997,6.18,66,17,0.45,US,1670284050
560,srednekolymsk,67.45,153.6833,-32.97,97,100,1.31,RU,1670284299
561,harper,4.375,-7.7169,25.67,86,72,3.36,LR,1670284164
562,columbus,39.9612,-82.9988,8.29,47,75,3.6,US,1670284106
563,viota,4.4371,-74.5216,20.94,92,44,1.67,CO,1670284299
564,chaozhou,23.6651,116.6379,12.92,70,100,2.18,CN,1670284300
565,mokhsogollokh,61.4681,128.9203,-24.37,96,100,1.95,RU,1670284300
566,tolaga bay,-38.3667,178.3,23.97,41,72,0.23,NZ,1670284301
567,tahe,52.3333,124.7333,-22.08,98,96,1.33,CN,1670284301
568,hobyo,5.3505,48.5268,25.83,84,100,7.63,SO,1670284301
569,bilibino,68.0546,166.4372,-21.21,73,100,2.81,RU,1670284218
570,masyaf,35.0653,36.3406,10.67,75,0,0.8,SY,1670284302
571,emerald,-23.5333,148.1667,29.63,51,0,4.02,AU,1670284129
572,bloemfontein,-29.1211,26.214,10.71,76,35,3.09,ZA,1670284303
573,salay,8.8592,124.7892,24.96,72,82,1.69,PH,1670284303
574,tomino,41.9877,-8.755,12.88,84,100,1.29,ES,1670284304
575,bacolod,10.6667,122.95,27.19,78,59,4.71,PH,1670284304
576,te anau,-45.4167,167.7167,9.98,92,100,1.6,NZ,1670284305
577,evensk,61.95,159.2333,-18.42,93,92,2.92,RU,1670284305
578,muisne,0.6,-80.0333,23.48,81,31,1.78,EC,1670283958
579,linxia,35.6003,103.2064,-3.66,58,48,1.1,CN,1670283917
580,tigre,-34.426,-58.5796,28.36,69,0,5.14,AR,1670284306
